City_ID,City,Country,Lat,Lng,Max Temp,Humidity,Cloudiness,Wind Speed,Current Description
0,Castro,BR,-24.7911,-50.0119,286.46,98,100,2.0,overcast clouds
1,Albany,US,42.6001,-73.9662,282.82,75,100,1.22,overcast clouds
2,Upernavik,GL,72.7868,-56.1549,267.47,77,100,2.81,overcast clouds
3,Ushuaia,AR,-54.8,-68.3,279.96,70,0,1.03,clear sky
4,Barrow,US,71.2906,-156.7887,269.16,86,100,6.17,mist
5,Merauke,ID,-8.4667,140.3333,304.01,65,72,3.41,broken clouds
6,Bluff,NZ,-46.6,168.3333,280.39,86,100,8.92,light rain
7,Rikitea,PF,-23.1203,-134.9692,295.05,65,89,8.79,overcast clouds
8,Chokurdakh,RU,70.6333,147.9167,269.5,81,99,1.76,overcast clouds
9,Vaini,TO,-21.2,-175.2,301.24,69,75,5.66,broken clouds
10,Mataura,NZ,-46.1927,168.8643,280.83,91,99,3.88,light rain
11,Cidreira,BR,-30.1811,-50.2056,286.06,75,0,2.87,clear sky
12,Whitehorse,CA,60.7161,-135.0538,282.49,57,46,1.34,scattered clouds
13,Saint George,US,37.1041,-113.5841,297.56,42,0,6.69,clear sky
14,Torbay,CA,47.6666,-52.7314,278.8,80,7,0.89,clear sky
15,Watsa,CD,3.0372,29.5355,289.71,98,100,0.41,light rain
16,Avera,US,33.194,-82.5271,287.18,74,5,2.45,clear sky
17,Saint-Philippe,RE,-21.3585,55.7679,292.92,82,41,5.85,scattered clouds
18,Hanzhong,CN,33.0728,107.0303,286.72,94,100,0.46,overcast clouds
19,Souillac,MU,-20.5167,57.5167,293.36,83,40,3.6,scattered clouds
20,Butaritari,KI,3.0707,172.7902,300.84,74,85,5.17,overcast clouds
21,Coquimbo,CL,-29.9533,-71.3436,286.0,82,100,3.09,overcast clouds
22,Springville,US,40.1652,-111.6107,292.39,46,0,5.66,clear sky
23,East London,ZA,-33.0153,27.9116,290.17,70,100,6.56,overcast clouds
24,Plastun,RU,44.7561,136.2939,281.21,36,97,7.28,overcast clouds
25,Kapaa,US,22.0752,-159.319,301.33,65,0,7.72,clear sky
26,Georgetown,MY,5.4112,100.3354,302.53,79,20,2.57,few clouds
27,Leningradskiy,RU,69.3833,178.4167,272.9,91,100,2.59,light snow
28,Srikakulam,IN,18.3,83.9,297.86,95,100,2.54,heavy intensity rain
29,Cape Town,ZA,-33.9258,18.4232,289.47,83,80,0.89,broken clouds
30,Carnarvon,AU,-24.8667,113.6333,296.11,37,0,1.14,clear sky
31,Kutum,SD,14.2,24.6667,297.95,29,90,4.43,overcast clouds
32,Sturgis,US,41.7992,-85.4192,282.04,93,0,0.0,clear sky
33,Ponta Do Sol,PT,32.6667,-17.1,293.5,69,70,0.91,broken clouds
34,Nova Venecia,BR,-18.7106,-40.4006,298.75,70,100,2.22,overcast clouds
35,Atuona,PF,-9.8,-139.0333,297.81,78,28,8.7,scattered clouds
36,Busselton,AU,-33.65,115.3333,288.57,63,0,5.96,clear sky
37,Jamestown,US,42.097,-79.2353,280.95,68,0,2.57,clear sky
38,Arraial Do Cabo,BR,-22.9661,-42.0278,293.11,85,100,1.56,moderate rain
39,Khatanga,RU,71.9667,102.5,265.47,86,100,2.85,overcast clouds
40,Lebu,CL,-37.6167,-73.65,283.95,93,98,5.21,overcast clouds
41,Codrington,AU,-38.2667,141.9667,286.82,74,100,6.84,overcast clouds
42,Hilo,US,19.7297,-155.09,301.64,88,75,4.63,broken clouds
43,Bafoulabe,ML,13.8065,-10.8321,298.36,85,9,1.17,clear sky
44,Wanning,CN,18.8003,110.3967,301.76,77,100,1.78,overcast clouds
45,Makakilo City,US,21.3469,-158.0858,302.35,59,100,5.66,overcast clouds
46,Punta Arenas,CL,-53.15,-70.9167,279.21,81,75,4.12,broken clouds
47,Chumikan,RU,54.7183,135.315,276.97,36,97,4.91,overcast clouds
48,Rio Grande,BR,-32.035,-52.0986,286.58,70,87,4.85,overcast clouds
49,Plouzane,FR,48.3833,-4.6167,287.33,85,100,4.12,overcast clouds
50,Kruisfontein,ZA,-34.0033,24.7314,285.86,72,57,5.63,broken clouds
51,Dikson,RU,73.5069,80.5464,272.83,99,100,1.4,light snow
52,Tasiilaq,GL,65.6145,-37.6368,277.24,98,100,3.83,light rain
53,Verkhnyaya Inta,RU,65.9811,60.3094,276.22,88,100,4.35,overcast clouds
54,Katsuura,JP,35.1333,140.3,298.72,69,72,9.01,broken clouds
55,Qaanaaq,GL,77.484,-69.3632,265.06,72,100,2.76,overcast clouds
56,Laguna,US,38.421,-121.4238,301.73,51,0,4.63,clear sky
57,Araouane,ML,18.9048,-3.5265,306.84,19,19,4.13,few clouds
58,Hofn,IS,64.2539,-15.2082,281.84,87,100,10.51,overcast clouds
59,Talaya,RU,61.3833,152.75,267.41,91,100,3.87,light snow
60,Zyryanka,RU,65.75,150.85,271.28,68,100,4.3,overcast clouds
61,Avarua,CK,-21.2078,-159.775,299.18,73,40,9.26,scattered clouds
62,Zvornik,BA,44.3869,19.1014,281.45,91,30,1.96,scattered clouds
63,Guanica,PR,17.9716,-66.908,299.23,92,100,2.13,overcast clouds
64,Vao,NC,-22.6667,167.4833,293.82,65,3,7.31,clear sky
65,Nikolskoye,RU,59.7035,30.7861,282.09,90,98,3.44,overcast clouds
66,Rio Gallegos,AR,-51.6226,-69.2181,279.18,87,40,2.06,scattered clouds
67,Flinders,AU,-34.5833,150.8552,294.47,68,83,2.24,broken clouds
68,Seddon,AU,-37.8068,144.8916,291.04,68,75,5.66,broken clouds
69,Hobart,AU,-42.8794,147.3294,286.07,58,40,8.75,scattered clouds
70,Mount Isa,AU,-20.7333,139.5,306.02,27,75,5.66,broken clouds
71,Jiamusi,CN,46.8333,130.35,278.1,40,2,7.28,clear sky
72,Road Town,VG,18.4167,-64.6167,301.2,83,40,3.09,scattered clouds
73,Tambura,SS,5.6,27.4667,293.03,97,100,1.16,light rain
74,Talnakh,RU,69.4865,88.3972,273.82,94,100,11.23,snow
75,Longyearbyen,SJ,78.2186,15.6401,275.06,87,75,0.51,broken clouds
76,La Ronge,CA,55.1001,-105.2842,279.29,75,20,0.51,smoke
77,Abu Dhabi,AE,24.4667,54.3667,302.02,64,2,5.37,clear sky
78,Buchanan,LR,5.8808,-10.0467,297.02,92,61,1.97,broken clouds
79,Dawei,MM,14.0833,98.2,298.0,92,100,2.36,overcast clouds
80,Cabo San Lucas,MX,22.8909,-109.9124,302.32,57,0,1.03,clear sky
81,New Norfolk,AU,-42.7826,147.0587,285.88,51,96,1.34,overcast clouds
82,Takoradi,GH,4.8845,-1.7554,296.97,94,95,2.77,overcast clouds
83,Kampene,CD,-3.6,26.6667,291.99,98,98,1.11,overcast clouds
84,Zhezkazgan,KZ,47.8043,67.7144,271.14,50,0,6.0,clear sky
85,Port Alfred,ZA,-33.5906,26.891,287.14,87,100,1.34,overcast clouds
86,Dholka,IN,22.7167,72.4667,299.36,65,100,2.2,overcast clouds
87,Airai,TL,-8.9266,125.4092,296.86,61,86,0.74,overcast clouds
88,Bethel,US,41.3712,-73.414,283.02,82,100,2.57,overcast clouds
89,Pachino,IT,36.7186,15.0907,295.15,72,77,4.87,broken clouds
90,Khor,RU,47.8861,134.9464,276.98,47,7,8.09,clear sky
91,Palatka,US,29.6486,-81.6376,294.24,82,18,0.89,few clouds
92,Eureka,US,40.8021,-124.1637,288.11,83,6,0.45,clear sky
93,Erenhot,CN,43.6475,111.9767,274.54,25,0,1.06,clear sky
94,Fairbanks,US,64.8378,-147.7164,284.15,71,40,3.09,scattered clouds
95,Amapa,BR,1.0,-52.0,295.23,96,100,1.3,overcast clouds
96,Thompson,CA,55.7435,-97.8558,275.24,80,20,1.03,few clouds
97,Salalah,OM,17.0151,54.0924,297.43,83,89,2.04,overcast clouds
98,Liverpool,GB,53.4106,-2.9779,287.45,87,100,4.12,overcast clouds
99,Trairi,BR,-3.2778,-39.2689,298.47,79,40,5.43,scattered clouds
100,Tiksi,RU,71.6872,128.8694,266.96,88,81,5.09,broken clouds
101,Maniitsoq,GL,65.4167,-52.9,273.91,66,97,2.49,overcast clouds
102,Yasnogorsk,RU,54.4803,37.6975,282.35,82,100,9.19,overcast clouds
103,Souris,CA,49.6172,-100.2612,287.45,59,64,2.76,broken clouds
104,Guerrero Negro,MX,27.9769,-114.0611,294.04,80,58,7.02,broken clouds
105,Port Elizabeth,ZA,-33.918,25.5701,288.31,81,0,7.2,clear sky
106,Champerico,GT,14.3,-91.9167,300.2,77,86,2.88,overcast clouds
107,Tuktoyaktuk,CA,69.4541,-133.0374,269.15,86,100,6.17,overcast clouds
108,Benguela,AO,-12.5763,13.4055,294.85,84,22,1.16,few clouds
109,Jiangkou,CN,25.4872,119.1986,303.54,54,0,1.76,clear sky
110,Huilong,CN,31.8111,121.655,295.89,82,100,10.41,overcast clouds
111,Bredasdorp,ZA,-34.5322,20.0403,283.09,89,0,2.75,clear sky
112,Ardmore,US,34.1743,-97.1436,295.51,48,0,0.0,clear sky
113,Puerto Ayora,EC,-0.7393,-90.3518,291.79,93,38,3.58,scattered clouds
114,Marrakesh,MA,31.6315,-8.0083,294.19,40,22,1.54,few clouds
115,Saskylakh,RU,71.9167,114.0833,264.4,95,95,2.76,overcast clouds
116,Kaniama,CD,-7.5667,24.1833,291.41,90,97,0.95,overcast clouds
117,Nayoro,JP,44.3506,142.4578,289.43,99,100,1.56,light rain
118,Faanui,PF,-16.4833,-151.75,298.94,75,4,6.59,light rain
119,Clyde River,CA,70.4692,-68.5914,271.28,100,100,2.06,overcast clouds
120,Kotka,FI,60.4664,26.9458,278.74,88,100,9.8,light rain
121,Caravelas,BR,-17.7125,-39.2481,297.15,86,56,5.07,broken clouds
122,Pangnirtung,CA,66.1451,-65.7125,274.7,57,100,4.43,light snow
123,Oda,JP,35.1833,132.5,301.58,69,98,6.42,light rain
124,Haines Junction,CA,60.7522,-137.5108,283.12,53,100,3.09,overcast clouds
125,Provideniya,RU,64.3833,-173.3,280.21,70,0,3.0,clear sky
126,Tocopilla,CL,-22.092,-70.1979,288.54,68,8,1.09,clear sky
127,Nacala,MZ,-14.5428,40.6728,294.0,86,5,1.52,clear sky
128,Pisco,PE,-13.7,-76.2167,288.18,88,0,7.2,clear sky
129,Mahebourg,MU,-20.4081,57.7,294.4,83,40,3.6,scattered clouds
130,Norman Wells,CA,65.282,-126.8329,275.17,100,100,2.06,light rain
131,Cockburn Town,TC,21.4612,-71.1419,301.61,72,100,2.5,overcast clouds
132,Tsabong,BW,-26.0217,22.401,291.91,10,0,4.04,clear sky
133,Bendigo,AU,-36.7667,144.2833,293.63,51,100,2.24,overcast clouds
134,Magugu,TZ,-4.0167,35.7667,290.05,67,100,1.17,overcast clouds
135,Kibaya,TZ,-5.3,36.5667,284.66,87,99,1.28,overcast clouds
136,Touros,BR,-5.1989,-35.4608,297.89,77,20,5.86,few clouds
137,Pacific Grove,US,36.6177,-121.9166,292.29,79,0,4.02,clear sky
138,San Antonio,US,29.4241,-98.4936,299.03,35,100,2.06,overcast clouds
139,Bolobo,CD,-2.1667,16.2333,294.29,94,42,1.08,scattered clouds
140,Teya,RU,60.3778,92.6267,272.5,73,87,1.88,overcast clouds
141,Maralal,KE,1.0968,36.698,287.3,74,100,1.48,overcast clouds
142,Tuatapere,NZ,-46.1333,167.6833,281.1,90,100,5.08,light rain
143,Geraldton,AU,-28.7667,114.6,296.38,35,0,5.14,clear sky
144,Bac Lieu,VN,9.285,105.7244,301.54,77,100,4.53,overcast clouds
145,Palmer,US,42.1584,-72.3287,283.39,69,100,3.6,overcast clouds
146,Hobyo,SO,5.3505,48.5268,297.61,88,45,7.8,scattered clouds
147,Bengkulu,ID,-3.8004,102.2655,299.61,79,100,1.41,overcast clouds
148,Hermanus,ZA,-34.4187,19.2345,285.82,71,53,3.08,broken clouds
149,Lukovetskiy,RU,64.2956,41.9211,278.1,92,100,4.42,light rain
150,Namibe,AO,-15.1961,12.1522,292.19,89,47,0.94,scattered clouds
151,Bayang,PH,7.7928,124.1917,300.68,60,92,1.23,overcast clouds
152,Mar Del Plata,AR,-38.0023,-57.5575,284.87,88,0,3.09,clear sky
153,Cherskiy,RU,68.75,161.3,271.62,71,100,3.48,overcast clouds
154,Bambous Virieux,MU,-20.3428,57.7575,294.38,83,40,3.6,scattered clouds
155,Tanacu,RO,46.6833,27.8167,282.92,68,99,3.5,overcast clouds
156,Picton,AU,-34.1833,150.6,296.29,45,67,1.71,broken clouds
157,Blankenberge,BE,51.3131,3.1323,285.12,95,100,4.75,overcast clouds
158,Bambanglipuro,ID,-7.95,110.2833,300.73,73,91,3.94,overcast clouds
159,Sungairaya,ID,0.7,108.9,301.53,74,88,2.55,overcast clouds
160,Kaeo,NZ,-35.1,173.7833,289.7,60,84,3.02,broken clouds
161,Yar-Sale,RU,66.8333,70.8333,276.48,81,100,5.39,overcast clouds
162,Zeya,RU,53.75,127.2667,275.51,32,57,5.16,broken clouds
163,Rio Do Sul,BR,-27.2142,-49.6431,290.03,94,99,1.36,overcast clouds
164,Inuvik,CA,68.3499,-133.7218,271.63,86,75,3.6,broken clouds
165,Wuwei,CN,37.9281,102.6414,283.08,46,3,1.8,clear sky
166,Straumen,NO,63.8709,11.2999,282.15,89,64,2.13,broken clouds
167,Fort Nelson,CA,58.8053,-122.7002,280.92,66,40,1.54,scattered clouds
168,Togur,RU,58.3631,82.8265,272.65,75,64,2.88,broken clouds
169,Bud,US,39.447,-86.1758,287.03,63,0,3.34,clear sky
170,Salo,IT,45.6086,10.531,290.37,77,27,2.98,scattered clouds
171,Mareeba,AU,-17.0,145.4333,300.62,66,59,4.86,broken clouds
172,Tombouctou,ML,20.0,-3.0,304.79,12,0,3.17,clear sky
173,Nevers,FR,46.9167,3.3333,280.26,92,12,1.11,few clouds
174,Vestmannaeyjar,IS,63.4427,-20.2734,283.09,82,100,11.48,overcast clouds
175,Kumluca,TR,36.3703,30.2869,297.1,57,0,1.84,clear sky
176,Belmonte,BR,-15.8631,-38.8828,296.85,87,45,4.37,scattered clouds
177,Mamallapuram,IN,12.6264,80.1722,302.18,66,100,4.25,overcast clouds
178,Husavik,IS,66.0449,-17.3389,278.91,92,93,3.02,overcast clouds
179,Luanda,AO,-8.8368,13.2343,295.15,88,34,2.06,scattered clouds
180,Hithadhoo,MV,-0.6,73.0833,300.96,69,100,7.1,overcast clouds
181,Saint-Augustin,CA,51.226,-58.6502,279.29,62,9,6.53,clear sky
182,Mildura,AU,-34.2,142.15,290.0,57,100,6.8,light rain
183,Axim,GH,4.8699,-2.2405,297.09,93,71,2.52,broken clouds
184,Luderitz,NA,-26.6481,15.1594,286.7,80,0,8.15,clear sky
185,Victoria Point,AU,-27.5833,153.3,297.28,65,36,0.89,scattered clouds
186,Yulara,AU,-25.2406,130.9889,292.2,60,97,0.61,overcast clouds
187,Kavieng,PG,-2.5744,150.7967,303.05,63,100,4.24,overcast clouds
188,Zenzeli,RU,45.9241,47.0474,292.18,92,100,6.71,overcast clouds
189,Onda,ES,39.9667,-0.25,294.21,86,100,0.4,overcast clouds
190,Lubango,AO,-14.9172,13.4925,289.34,68,55,1.57,broken clouds
191,Labuhan,ID,-6.8844,112.2051,301.82,67,96,3.83,overcast clouds
192,Campoverde,PE,-8.4753,-74.8058,298.98,70,21,1.12,few clouds
193,Povenets,RU,62.8487,34.8262,279.85,95,100,5.07,overcast clouds
194,Yellowknife,CA,62.456,-114.3525,280.13,70,75,4.63,broken clouds
195,Turiacu,BR,-1.6633,-45.3717,296.92,89,33,2.17,scattered clouds
196,Puerto El Triunfo,SV,13.2833,-88.55,301.66,92,100,1.72,overcast clouds
197,Iqaluit,CA,63.7506,-68.5145,276.0,86,75,5.14,light rain
198,Stykkisholmur,IS,65.0757,-22.7297,280.47,83,100,7.08,overcast clouds
199,Tecoanapa,MX,16.5167,-98.75,299.61,78,13,2.2,few clouds
200,Paita,PE,-5.0892,-81.1144,290.42,85,76,6.34,broken clouds
201,Mandalgovi,MN,45.7625,106.2708,271.97,32,0,5.16,clear sky
202,Poum,NC,-20.2333,164.0167,296.54,64,2,7.5,clear sky
203,Palana,RU,59.1167,159.9667,279.16,76,100,3.19,overcast clouds
204,Tomatlan,MX,19.9333,-105.25,296.11,95,100,1.17,overcast clouds
205,Sakakah,SA,29.9697,40.2064,297.91,17,0,3.19,clear sky
206,Nuuk,GL,64.1835,-51.7216,274.49,93,75,0.51,broken clouds
207,Warri,NG,5.5167,5.75,296.41,94,97,1.12,overcast clouds
208,Faya,SA,18.3851,42.4509,289.21,31,1,2.51,clear sky
209,Ilulissat,GL,69.2167,-51.1,273.16,69,100,4.63,overcast clouds
210,Elko,US,41.0002,-115.5012,291.84,27,3,4.02,clear sky
211,Puerto Carreno,CO,6.189,-67.4859,298.48,86,100,2.08,overcast clouds
212,Los Llanos De Aridane,ES,28.6585,-17.9182,296.0,50,0,3.6,clear sky
213,Victoria,HK,22.2855,114.1577,304.96,74,4,2.68,clear sky
214,Praia Da Vitoria,PT,38.7333,-27.0667,293.29,94,0,2.19,clear sky
215,Rawson,AR,-43.3002,-65.1023,286.95,65,100,4.1,overcast clouds
216,Kodiak,US,57.79,-152.4072,283.88,82,100,5.14,overcast clouds
217,Nagato,JP,34.3833,131.2,300.0,69,48,6.77,scattered clouds
218,Vila Velha,BR,-20.3297,-40.2925,296.12,95,100,4.92,moderate rain
219,Te Anau,NZ,-45.4167,167.7167,280.83,91,99,3.01,overcast clouds
220,Golfito,CR,8.639,-83.166,297.81,95,65,0.74,broken clouds
221,Port-Gentil,GA,-0.7193,8.7815,298.34,84,100,4.75,light rain
222,Aksarka,RU,66.5606,67.7975,273.7,91,10,4.7,clear sky
223,Kamenka,RU,51.3223,42.7678,282.9,75,73,4.3,broken clouds
224,Pevek,RU,69.7008,170.3133,271.72,75,100,3.87,overcast clouds
225,Maragogi,BR,-9.0122,-35.2225,297.36,75,67,3.27,broken clouds
226,Broome,US,42.2506,-75.833,282.93,75,0,4.12,clear sky
227,Alyangula,AU,-13.8483,136.4192,302.64,68,84,5.86,broken clouds
228,Mubende,UG,0.5606,31.39,287.99,97,100,0.93,overcast clouds
229,Tongchuan,CN,35.0806,109.0897,282.88,68,100,2.84,overcast clouds
230,Ndago,TZ,-4.6,34.35,291.03,47,91,3.71,overcast clouds
231,Lata,PT,40.1629,-8.3327,287.55,60,1,1.37,clear sky
232,Sioux Lookout,CA,50.1001,-91.917,285.19,94,100,1.03,overcast clouds
233,Berlevag,NO,70.8578,29.0864,277.04,87,75,1.03,broken clouds
234,Caloundra,AU,-26.8,153.1333,295.87,58,29,3.55,scattered clouds
235,Benjamin Constant,BR,-4.3831,-70.0311,297.22,84,8,0.31,clear sky
236,Guozhen,CN,34.3659,107.359,286.12,89,100,1.14,overcast clouds
237,Nyurba,RU,63.2842,118.3319,271.5,63,61,3.44,broken clouds
238,Wanaka,NZ,-44.7,169.15,288.77,36,84,6.71,broken clouds
239,Diamantino,BR,-14.4086,-56.4461,297.07,82,75,1.76,broken clouds
240,Arman,RU,59.7,150.1667,274.83,61,100,5.42,overcast clouds
241,Jining,CN,35.405,116.5814,284.25,51,100,5.73,overcast clouds
242,Camacha,PT,33.0833,-16.3333,290.83,82,20,1.54,few clouds
243,Sao Filipe,CV,14.8961,-24.4956,299.3,80,100,3.8,light rain
244,Petropavlovsk-Kamchatskiy,RU,53.0452,158.6483,288.48,63,20,4.0,few clouds
245,Arlit,NE,18.7369,7.3853,305.49,14,0,2.41,clear sky
246,Kuri,KR,37.5986,127.1394,292.97,84,100,1.89,overcast clouds
247,Umea,SE,63.8284,20.2597,280.32,100,40,1.54,scattered clouds
248,Ayia Galini,GR,35.1,24.6833,292.81,52,0,3.08,clear sky
249,Qui Nhon,VN,13.7667,109.2333,300.45,81,99,3.74,heavy intensity rain
250,Sungaipenuh,ID,-2.0833,101.3833,295.7,77,100,1.48,overcast clouds
251,Baruun-Urt,MN,46.6806,113.2792,273.86,31,0,5.07,clear sky
252,Fereydun Kenar,IR,36.6864,52.5225,296.98,69,2,3.95,clear sky
253,Esqueda,MX,30.7167,-109.5833,295.63,38,0,1.27,clear sky
254,Vitim,RU,59.4511,112.5578,272.89,77,100,2.23,overcast clouds
255,Aklavik,CA,68.2191,-135.0107,270.15,92,86,3.4,overcast clouds
256,Alofi,NU,-19.0595,-169.9187,301.09,74,75,5.66,broken clouds
257,Kahului,US,20.8947,-156.47,301.16,74,75,7.2,broken clouds
258,Evensk,RU,61.95,159.2333,276.66,49,70,6.7,broken clouds
259,Luganville,VU,-15.5333,167.1667,300.18,77,34,2.87,scattered clouds
260,Huercal-Overa,ES,37.389,-1.9454,298.28,53,83,0.92,broken clouds
261,Ust-Kachka,RU,58.006,55.6725,282.31,70,97,2.24,overcast clouds
262,Fortuna,US,40.5982,-124.1573,287.96,80,5,1.72,clear sky
263,Santa Isabel,BR,-23.3156,-46.2214,289.76,95,100,1.3,overcast clouds
264,Praia,CV,14.9215,-23.5087,299.45,83,75,5.66,broken clouds
265,Saint-Louis,SN,16.3333,-15.0,304.45,50,99,1.6,overcast clouds
266,Jacareacanga,BR,-6.2222,-57.7528,295.63,99,100,0.88,overcast clouds
267,Margate,GB,51.3813,1.3862,289.21,94,73,2.24,broken clouds
268,Fushun,CN,41.8558,123.9233,280.99,40,0,6.85,clear sky
269,The Pas,CA,53.8251,-101.2541,280.16,81,0,0.0,clear sky
270,Formosa,AR,-26.1775,-58.1781,291.14,68,0,1.03,clear sky
271,Nicoya,CR,10.1483,-85.452,297.67,91,100,0.57,overcast clouds
272,Vardo,NO,70.3705,31.1107,277.14,87,100,2.06,overcast clouds
273,Severo-Kurilsk,RU,50.6789,156.125,285.04,73,99,7.32,overcast clouds
274,Chara,RU,56.9064,118.2631,269.82,62,98,1.73,overcast clouds
275,Guangshui,CN,31.6199,113.9978,286.94,86,100,7.8,overcast clouds
276,Akyab,MM,20.15,92.9,300.27,78,80,2.68,broken clouds
277,Tromso,NO,69.6496,18.957,278.36,100,100,0.51,fog
278,Kaitangata,NZ,-46.2817,169.8464,285.92,61,83,6.07,broken clouds
279,Mount Gambier,AU,-37.8333,140.7667,288.58,71,100,4.64,overcast clouds
280,Skibbereen,IE,51.55,-9.2667,289.32,93,100,11.23,overcast clouds
281,Boa Vista,BR,2.8197,-60.6733,299.14,78,40,2.06,scattered clouds
282,Kudahuvadhoo,MV,2.6708,72.8944,300.7,76,100,7.96,overcast clouds
283,Progreso,MX,21.2833,-89.6667,299.88,73,12,5.51,few clouds
284,Rocha,UY,-34.4833,-54.3333,281.31,87,17,1.57,few clouds
285,Eyl,SO,7.9803,49.8164,297.24,84,29,4.48,scattered clouds
286,Paamiut,GL,61.994,-49.6678,275.65,64,9,3.11,clear sky
287,Price,US,39.5994,-110.8107,288.77,77,75,3.09,broken clouds
288,Amparafaravola,MG,-17.5833,48.2167,283.88,92,0,0.63,clear sky
289,Spas-Demensk,RU,54.4122,34.0226,277.41,97,100,5.52,light rain
290,Stornoway,GB,58.2093,-6.3865,288.13,95,100,14.4,moderate rain
291,Bahia Honda,CU,22.9036,-83.1592,296.17,65,12,2.44,few clouds
292,Bonfim,BR,3.0833,-59.95,298.72,76,74,1.79,broken clouds
293,Narimanov,RU,46.6927,47.8498,290.1,50,100,7.72,overcast clouds
294,Xiangxiang,CN,27.7333,112.5333,298.25,64,56,7.2,broken clouds
295,Ukiah,US,39.1502,-123.2078,296.84,67,0,1.54,clear sky
296,Tautira,PF,-17.7333,-149.15,297.8,81,23,9.83,light rain
297,San Patricio,US,28.017,-97.5169,299.12,46,99,2.77,overcast clouds
298,Angoram,PG,-4.0625,144.0661,306.77,50,20,1.63,few clouds
299,Grindavik,IS,63.8424,-22.4338,284.12,76,100,7.72,overcast clouds
300,Makurdi,NG,7.7411,8.5121,296.27,92,100,1.48,overcast clouds
301,Lalgudi,IN,10.8667,78.8333,299.33,78,40,6.17,mist
302,Lompoc,US,34.6391,-120.4579,294.73,85,5,1.34,clear sky
303,Klaksvik,FO,62.2266,-6.589,284.66,98,100,11.09,light rain
304,Lumeje,AO,-11.55,20.7833,292.83,53,63,3.06,broken clouds
305,Krasnogorsk,RU,55.8225,37.3181,283.4,76,75,7.0,broken clouds
306,Sorland,NO,67.667,12.6934,281.07,82,88,7.96,overcast clouds
307,Srivardhan,IN,18.0333,73.0167,298.41,87,100,3.16,overcast clouds
308,Henties Bay,NA,-22.116,14.2845,285.69,95,38,2.29,scattered clouds
309,Nantucket,US,41.2835,-70.0995,286.56,81,100,13.58,overcast clouds
310,Lorengau,PG,-2.0226,147.2712,303.21,67,16,4.84,few clouds
311,Fez,MA,34.0372,-4.9998,293.29,39,0,3.09,haze
312,Dhidhdhoo,MV,6.8833,73.1,300.63,78,100,6.82,overcast clouds
313,Amherst,US,41.3978,-82.2224,284.89,84,0,0.89,clear sky
314,Swan Hill,AU,-35.3378,143.5544,295.03,39,98,3.31,overcast clouds
315,Cooma,AU,-36.2333,149.1333,291.18,42,98,0.31,overcast clouds
316,Kaohsiung,TW,22.6163,120.3133,305.12,70,40,2.68,scattered clouds
317,Linqiong,CN,30.4159,103.4609,293.05,90,100,2.16,overcast clouds
318,Dunedin,NZ,-45.8742,170.5036,287.62,47,96,1.4,overcast clouds
319,Oranjemund,NA,-28.55,16.4333,286.02,94,16,5.18,few clouds
320,Wajima,JP,37.4,136.9,300.53,65,75,8.23,broken clouds
321,Tambopata,PE,-12.7333,-69.1833,296.17,88,92,1.2,overcast clouds
322,Saravena,CO,6.9538,-71.8752,295.73,90,52,1.35,broken clouds
323,Acajutla,SV,13.5928,-89.8275,299.2,83,100,1.5,overcast clouds
324,Saldanha,ZA,-33.0117,17.9442,281.18,81,2,3.61,clear sky
325,Lagoa,PT,39.05,-27.9833,293.41,80,96,2.13,overcast clouds
326,Bilibino,RU,68.0546,166.4372,270.6,70,99,0.95,overcast clouds
327,Niquero,CU,20.0431,-77.5828,299.0,80,89,0.44,overcast clouds
328,Tchollire,CM,8.4022,14.1698,295.01,96,98,0.39,light rain
329,Ati,TD,13.2154,18.3353,299.01,65,93,5.65,overcast clouds
330,Mbanza-Ngungu,CD,-5.25,14.8667,293.3,85,76,1.82,broken clouds
331,Mugur-Aksy,RU,50.35,90.5,268.67,38,0,1.18,clear sky
332,Brae,GB,60.3964,-1.353,285.36,94,100,11.62,light rain
333,Chuy,UY,-33.6971,-53.4616,286.37,60,91,3.84,overcast clouds
334,Half Moon Bay,US,37.4636,-122.4286,293.16,78,0,8.75,clear sky
335,Sinnamary,GF,5.3833,-52.95,298.71,88,92,3.48,overcast clouds
336,Lethem,GY,3.3803,-59.7968,299.09,70,77,1.53,broken clouds
337,Mackay,AU,-21.15,149.2,297.42,63,100,6.81,overcast clouds
338,Zakharovo,RU,54.366,39.2792,282.09,81,8,7.74,clear sky
339,Vila Franca Do Campo,PT,37.7167,-25.4333,297.15,93,46,4.75,light rain
340,Karasjok,NO,69.4719,25.5112,275.3,86,100,1.41,overcast clouds
341,Quatre Cocos,MU,-20.2078,57.7625,294.87,78,23,5.35,few clouds
342,Petrivka,UA,46.9695,30.9591,283.74,76,45,5.12,scattered clouds
343,Pangody,RU,65.85,74.4859,276.05,95,100,5.84,overcast clouds
344,Yumen,CN,40.2833,97.2,279.5,39,0,9.07,clear sky
345,Galle,LK,6.0367,80.217,298.89,86,100,6.53,overcast clouds
346,Tokmak,UA,47.2514,35.7058,285.12,81,57,3.31,broken clouds
347,Sitka,US,57.0531,-135.33,286.09,67,0,1.54,clear sky
348,San Cristobal,VE,7.7669,-72.225,297.25,87,59,1.07,broken clouds
349,Khvoynaya,RU,58.9,34.5333,279.74,92,100,3.95,overcast clouds
350,Herat,AF,34.5,62.0,288.22,22,0,1.55,clear sky
351,Nioro,GM,13.35,-15.75,297.25,95,100,1.13,moderate rain
352,Fallon,US,39.4735,-118.7774,294.08,23,0,2.06,clear sky
353,Ballina,AU,-28.8667,153.5667,295.94,59,16,3.45,few clouds
354,Port Hardy,CA,50.6996,-127.4199,284.15,88,82,2.34,broken clouds
355,Pokhara,NP,28.2333,83.9833,295.13,70,14,0.82,few clouds
356,Kasama,ZM,-10.2129,31.1808,288.25,52,6,1.27,clear sky
357,Northam,GB,51.0333,-4.2167,287.25,91,52,5.81,broken clouds
358,Christchurch,NZ,-43.5333,172.6333,292.82,55,41,4.63,scattered clouds
359,Alpignano,IT,45.102,7.5266,289.73,73,0,2.57,clear sky
360,San Luis,AR,-33.295,-66.3356,292.6,27,2,5.18,clear sky
361,Severnoye,RU,56.3491,78.3619,273.16,61,100,2.43,overcast clouds
362,Flin Flon,CA,54.7682,-101.865,281.98,55,9,1.36,clear sky
363,Sistranda,NO,63.7256,8.834,282.13,89,100,3.63,overcast clouds
364,Riviere-Au-Renard,CA,48.9957,-64.3971,273.31,70,2,3.37,clear sky
365,Marienburg,PL,54.0359,19.0266,284.84,91,15,4.91,few clouds
366,Bilma,NE,18.6853,12.9164,302.3,17,0,4.64,clear sky
367,Kibakwe,TZ,-6.7167,36.3667,287.32,77,42,1.67,scattered clouds
368,Sibolga,ID,1.7427,98.7792,299.66,79,100,0.95,overcast clouds
369,Ilo,PE,-17.6394,-71.3375,288.18,82,65,2.72,broken clouds
370,Portland,US,45.5234,-122.6762,297.49,63,20,1.54,smoke
371,Tutoia,BR,-2.7619,-42.2744,298.87,80,20,4.33,few clouds
372,Ribeira Grande,PT,38.5167,-28.7,294.0,82,99,1.35,overcast clouds
373,Kieta,PG,-6.2167,155.6333,301.61,77,100,3.25,light rain
374,Gravdal,NO,68.1214,13.5031,283.27,84,99,8.67,overcast clouds
375,Bezhetsk,RU,57.7851,36.6965,282.95,81,99,9.11,overcast clouds
376,Colares,PT,38.7992,-9.4469,295.56,76,5,5.81,clear sky
377,Windhoek,NA,-22.5594,17.0832,295.43,11,0,5.81,clear sky
378,Tessalit,ML,20.1986,1.0114,302.99,14,0,5.19,clear sky
379,Hirado,JP,33.3597,129.5531,298.65,84,100,7.14,overcast clouds
380,Russell,US,32.3502,-85.1999,292.02,88,0,0.0,clear sky
381,Kinablangan,PH,7.6947,126.5503,298.92,90,100,2.86,overcast clouds
382,Omboue,GA,-1.5746,9.2618,297.09,88,99,3.1,light rain
383,Petropavl,KZ,54.8753,69.1628,276.14,56,0,4.0,clear sky
384,Byron Bay,AU,-28.65,153.6167,294.79,57,20,3.03,few clouds
385,Coihaique,CL,-45.5752,-72.0662,282.12,61,0,1.03,clear sky
386,Hays,US,30.0502,-98.0336,297.59,37,100,2.03,overcast clouds
387,Qaqortoq,GL,60.7167,-46.0333,274.81,60,0,2.98,clear sky
388,Conceicao Da Barra,BR,-18.5933,-39.7322,297.68,80,99,3.91,overcast clouds
389,Tarrafal,CV,15.2833,-23.7667,299.59,80,99,5.74,overcast clouds
390,Calama,CL,-22.4667,-68.9333,285.42,5,0,2.57,clear sky
391,Ayan,RU,56.45,138.1667,275.83,44,96,6.88,overcast clouds
392,Porto Recanati,IT,43.4365,13.6613,289.99,46,0,3.89,clear sky
393,Tiarei,PF,-17.5333,-149.3333,297.16,80,8,10.18,light rain
394,Madison,US,34.7334,-86.5667,290.99,80,0,4.47,clear sky
395,Latung,PH,5.5,120.8833,302.26,69,96,3.38,overcast clouds
396,Terra Santa,BR,-2.1042,-56.4869,298.26,73,83,1.2,broken clouds
397,Corbu,RO,44.3833,28.65,281.77,87,0,4.12,clear sky
398,Havoysund,NO,70.9963,24.6622,279.28,70,69,3.69,broken clouds
399,Paoua,CF,7.2427,16.4406,293.16,95,93,1.47,overcast clouds
400,Khromtau,KZ,50.2503,58.4347,275.26,36,0,3.55,clear sky
401,Aztec,US,36.8222,-107.9929,288.82,56,80,1.85,broken clouds
402,Guarapari,BR,-20.6667,-40.4975,295.31,97,100,3.2,moderate rain
403,Forbes,AU,-33.3833,148.0167,293.79,53,54,2.49,broken clouds
404,Rupert,US,42.6191,-113.6772,287.69,62,0,0.0,clear sky
405,Asyut,EG,27.181,31.1837,297.25,49,0,3.92,clear sky
406,Marsa Matruh,EG,31.3525,27.2453,293.26,77,0,3.09,clear sky
407,Anadyr,RU,64.75,177.4833,273.43,86,75,3.0,fog
408,Carballo,ES,43.213,-8.691,288.83,75,3,1.04,clear sky
409,Khani,GE,41.9563,42.9566,285.91,86,100,2.27,overcast clouds
410,Moose Factory,CA,51.2585,-80.6094,290.15,72,100,3.6,overcast clouds
411,Pio Xii,BR,-3.8325,-45.1525,297.25,85,23,2.25,few clouds
412,Ibra,OM,22.6906,58.5334,295.9,72,0,0.46,clear sky
413,Biu,NG,10.6129,12.1946,294.93,81,99,2.19,overcast clouds
414,Hinton,CA,53.4001,-117.5857,287.64,69,59,0.74,broken clouds
415,Kathu,TH,7.9178,98.3332,301.87,99,100,2.69,overcast clouds
416,Kut Chap,TH,17.4257,102.5669,299.03,84,97,1.61,overcast clouds
417,Saint-Joseph,RE,-21.3667,55.6167,292.36,80,25,4.76,scattered clouds
418,Mbini,GQ,1.574,9.6134,297.64,88,100,1.83,moderate rain
419,Urumqi,CN,43.801,87.6005,279.68,39,0,2.0,clear sky
420,Biak,ID,-0.9131,122.8766,301.91,66,43,0.69,scattered clouds
421,Kembe,CF,4.6228,21.8865,293.09,99,100,1.11,overcast clouds
422,Mudgee,AU,-32.5943,149.5871,293.59,49,14,2.12,few clouds
423,Nishihara,JP,26.1842,127.7558,303.96,69,20,2.57,few clouds
424,Mirnyy,RU,62.5353,113.9611,271.06,86,69,4.02,broken clouds
425,Livingston,GB,55.9029,-3.5226,288.78,81,75,9.77,broken clouds
426,Nanortalik,GL,60.1432,-45.2371,275.58,74,5,1.88,clear sky
427,San Carlos De Bariloche,AR,-41.1456,-71.3082,282.01,57,75,7.72,light rain
428,Nizhniy Tsasuchey,RU,50.5167,115.1333,274.95,44,13,5.1,few clouds
429,Padang,ID,-0.9492,100.3543,300.18,88,100,1.42,overcast clouds
430,Wana,PK,32.2989,69.5725,292.99,24,0,0.97,clear sky
431,Akdepe,TM,42.0551,59.3788,278.2,37,8,4.9,clear sky
432,Letnyaya Stavka,RU,45.4306,43.4472,289.35,51,100,2.79,overcast clouds
433,Waingapu,ID,-9.6567,120.2641,303.56,59,51,2.56,broken clouds
434,Bemidji,US,47.4736,-94.8803,290.32,76,0,0.0,clear sky
435,Mushie,CD,-3.0167,16.9,294.51,91,51,1.4,broken clouds
436,Quchan,IR,37.106,58.5095,285.94,42,0,0.33,clear sky
437,Crewe,GB,53.0979,-2.4416,287.5,82,62,2.68,broken clouds
438,Beringovskiy,RU,63.05,179.3167,276.19,71,100,3.61,overcast clouds
439,Punuare,HN,14.7333,-85.9667,302.57,95,100,1.32,overcast clouds
440,Vostok,RU,46.4856,135.8833,273.36,58,31,6.42,scattered clouds
441,Udalguri,IN,26.7667,92.1333,296.36,96,100,1.16,overcast clouds
442,Harper,LR,4.375,-7.7169,297.37,90,99,2.24,overcast clouds
443,Cacaotepec,MX,17.1333,-96.8,291.73,48,40,1.03,scattered clouds
444,Pucallpa,PE,-8.3791,-74.5539,299.17,78,40,1.54,scattered clouds
445,Springdale,US,36.1867,-94.1288,293.1,55,0,3.09,clear sky
446,Esperance,AU,-33.8667,121.9,289.06,78,54,4.98,broken clouds
447,Forio,IT,40.7342,13.8646,293.94,67,39,0.45,scattered clouds
448,Buala,SB,-8.145,159.5921,302.1,71,100,3.71,light rain
449,Birao,CF,10.2849,22.7882,294.53,96,100,3.18,light rain
450,Udachnyy,RU,66.4167,112.4,267.29,73,59,2.23,broken clouds
451,Saint-Georges,GD,12.0564,-61.7485,298.97,89,20,0.0,few clouds
452,Sarangani,PH,5.4033,125.4636,301.45,76,71,9.12,broken clouds
453,Gusino,RU,54.7244,31.368,278.52,97,100,3.0,light rain
454,Mogadishu,SO,2.0371,45.3438,297.77,84,38,5.33,scattered clouds
455,Olafsvik,IS,64.8945,-23.7142,281.25,80,100,10.37,overcast clouds
456,Lazaro Cardenas,MX,17.9583,-102.2,299.3,80,33,0.62,scattered clouds
457,Coelho Neto,BR,-4.2567,-43.0128,297.8,75,56,2.96,broken clouds
458,Hami,CN,42.8,93.45,285.73,11,17,2.62,few clouds
459,Port Macquarie,AU,-31.4333,152.9167,295.87,58,6,3.79,clear sky
460,Mahon,ES,39.8885,4.2658,291.46,88,0,1.03,clear sky
461,Sarai,RU,53.7458,41.0213,282.79,77,4,6.95,clear sky
462,Antofagasta,CL,-23.65,-70.4,286.75,75,25,1.85,scattered clouds
463,Narsaq,GL,60.9167,-46.05,274.27,56,0,3.03,clear sky
464,Otradnoye,RU,59.7775,30.8181,282.18,89,95,3.42,overcast clouds
465,Gumdag,TM,39.2061,54.5906,288.63,15,7,10.1,clear sky
466,Asfi,MA,32.2994,-9.2372,294.53,64,32,3.39,scattered clouds
467,Ancud,CL,-41.8697,-73.8203,282.52,94,100,5.65,light rain
468,Chapleau,CA,47.8405,-83.4034,282.8,73,98,2.45,overcast clouds
469,Tiznit,MA,29.5833,-9.5,297.26,28,5,0.06,clear sky
470,Bundibugyo,UG,0.7414,30.0417,291.74,91,100,1.34,overcast clouds
471,Nerchinskiy Zavod,RU,51.3088,119.61,274.8,26,0,3.37,clear sky
472,Linfen,CN,36.0889,111.5189,284.7,68,100,4.49,overcast clouds
473,Aldama,MX,22.9167,-98.0667,296.13,86,65,2.44,broken clouds
474,Acarau,BR,-2.8856,-40.12,298.46,79,91,6.2,overcast clouds
475,Alenquer,BR,-1.9417,-54.7383,298.83,69,62,1.46,broken clouds
476,Tabuk,PH,17.4189,121.4443,302.0,73,64,1.94,broken clouds
477,Roald,NO,62.5833,6.1333,287.22,82,100,5.14,overcast clouds
478,Horlivka,UA,48.347,38.0542,284.87,78,96,5.22,overcast clouds
479,Mbuji-Mayi,CD,-6.15,23.6,293.96,91,19,1.01,few clouds
480,Callaway,US,30.153,-85.5699,295.32,65,0,3.09,clear sky
481,Ahipara,NZ,-35.1667,173.1667,288.32,71,91,5.43,overcast clouds
482,Okha,RU,53.5739,142.9478,278.03,88,100,5.51,light rain
483,Salinopolis,BR,-0.6136,-47.3561,299.5,78,7,5.6,clear sky
484,Ambilobe,MG,-13.2,49.05,290.87,83,10,1.52,clear sky
485,Taoudenni,ML,22.6783,-3.9836,306.24,19,11,5.85,few clouds
486,Meulaboh,ID,4.1363,96.1285,298.23,85,98,0.6,light rain
487,Sabang,ID,5.8933,95.3214,300.41,76,88,6.94,overcast clouds
488,Longyan,CN,25.1072,117.0225,306.39,50,0,0.5,clear sky
489,Isangel,VU,-19.55,169.2667,298.1,61,35,7.65,scattered clouds
490,Hudiksvall,SE,61.729,17.1036,278.86,88,2,2.61,clear sky
491,Coahuayana,MX,18.7333,-103.6833,298.11,90,100,0.87,overcast clouds
492,Tabas,IR,33.5959,56.9244,293.27,26,0,2.06,clear sky
493,Inirida,CO,3.8653,-67.9239,297.84,87,98,1.15,overcast clouds
494,Mehamn,NO,71.0357,27.8492,276.1,93,20,0.0,few clouds
495,Manokwari,ID,-0.8667,134.0833,302.42,67,68,2.58,broken clouds
496,Srednekolymsk,RU,67.45,153.6833,270.77,70,96,1.6,overcast clouds
497,Ondangwa,NA,-17.9167,15.95,292.15,27,42,1.54,scattered clouds
498,Naze,JP,28.3667,129.4833,301.66,69,22,2.45,few clouds
499,Kabare,CD,-2.4683,28.8242,288.55,87,92,1.14,overcast clouds
500,Banda Aceh,ID,5.5577,95.3222,301.31,70,51,5.1,broken clouds
501,Gat,IL,31.61,34.7642,296.7,100,1,0.56,clear sky
502,Richards Bay,ZA,-28.783,32.0377,294.37,76,100,6.8,overcast clouds
503,Oranjestad,AW,12.524,-70.027,302.12,79,20,6.17,few clouds
504,Xining,CN,36.6167,101.7667,281.07,42,58,0.44,broken clouds
505,Indiaroba,BR,-11.5192,-37.5117,294.06,85,0,1.63,clear sky
506,Mundargi,IN,15.2167,75.9,296.68,80,100,2.68,light rain
507,Taft,IR,31.7471,54.2088,291.12,26,20,2.06,few clouds
508,Concordia,AR,-31.393,-58.0209,286.36,56,23,1.34,few clouds
509,Dwarka,IN,22.2394,68.9678,300.26,71,23,2.47,few clouds
510,Linares,CL,-35.85,-71.6,281.37,81,60,1.22,broken clouds
511,Sao Joao Da Barra,BR,-21.6403,-41.0511,293.58,92,98,2.61,overcast clouds
512,Valkla,EE,59.4744,25.3186,281.18,80,100,9.1,light rain
513,Dolores,AR,-36.3132,-57.6792,279.9,93,95,3.18,overcast clouds
514,Imbituba,BR,-28.24,-48.6703,288.83,81,100,3.85,overcast clouds
515,Nabire,ID,-3.3667,135.4833,300.74,78,90,1.21,overcast clouds
516,Puteyets,RU,65.1716,57.091,276.91,83,100,0.35,overcast clouds
517,Saint Pete Beach,US,27.7253,-82.7412,296.51,65,0,4.63,clear sky
518,Piacabucu,BR,-10.4056,-36.4344,295.31,79,1,3.46,clear sky
519,Quelimane,MZ,-17.8786,36.8883,294.12,94,0,0.0,clear sky
520,Carmen,MX,18.6333,-91.8333,300.17,74,0,0.0,clear sky
521,Buriti Dos Lopes,BR,-3.175,-41.8669,297.52,82,34,3.01,scattered clouds
522,Fonte Boa,BR,-2.4959,-66.2662,296.17,94,5,0.85,clear sky
523,Bereda,ES,43.2686,-7.5406,286.71,100,0,0.6,clear sky
524,Miles City,US,46.4083,-105.8406,286.69,94,100,2.57,overcast clouds
525,Hamilton,US,39.1834,-84.5333,286.95,68,0,1.54,clear sky
526,Pombia,IT,45.653,8.6336,289.28,89,0,2.57,clear sky
527,Severo-Yeniseyskiy,RU,60.3725,93.0408,270.78,72,86,1.79,overcast clouds
528,Koforidua,GH,6.0941,-0.2591,295.05,99,56,1.4,broken clouds
529,Zadar,HR,44.1197,15.2422,288.49,55,0,4.12,clear sky
530,Svetlaya,RU,46.5389,138.3297,282.53,38,61,6.39,broken clouds
531,Sidney,AU,-33.8679,151.2073,299.05,58,0,3.6,clear sky
532,Verkhnevilyuysk,RU,63.4453,120.3167,271.85,69,97,3.43,overcast clouds
533,George Town,MY,5.4112,100.3354,303.11,77,20,2.06,few clouds
534,Bongandanga,CD,1.5,21.05,292.78,99,100,0.54,overcast clouds
535,Puerto Del Rosario,ES,28.5004,-13.8627,296.01,73,20,4.12,few clouds
536,Preobrazheniye,RU,42.9019,133.9064,280.66,42,100,3.46,overcast clouds
537,Broken Hill,AU,-31.95,141.4333,299.11,27,98,10.07,overcast clouds
538,Tamiahua,MX,21.2667,-97.45,296.17,86,46,1.74,scattered clouds
539,Alakurtti,RU,66.9672,30.3491,277.02,89,100,1.17,overcast clouds
540,Huarmey,PE,-10.0681,-78.1522,290.05,86,57,4.42,broken clouds
541,San Policarpo,PH,12.1791,125.5072,302.65,69,49,2.89,scattered clouds
542,Lasa,IT,46.6166,10.7002,280.02,51,9,1.92,clear sky
543,Mogzon,RU,51.7435,111.9606,271.44,61,100,3.01,overcast clouds
544,Werda,BW,-25.2667,23.2833,293.92,18,0,3.3,clear sky
545,Malanje,AO,-9.5402,16.341,291.32,89,59,2.52,broken clouds
546,Ketchikan,US,55.3422,-131.6461,283.41,93,0,3.09,clear sky
547,El Seibo,DO,18.7641,-69.0375,298.89,92,98,0.94,overcast clouds
548,Itirapina,BR,-22.2528,-47.8228,291.73,82,51,1.62,broken clouds
549,Ak-Dovurak,RU,51.1833,90.6,271.65,42,0,0.27,clear sky
550,Kitgum,UG,3.2783,32.8867,291.29,97,100,0.56,light rain
551,Hermiston,US,45.8404,-119.2895,298.05,55,0,2.57,clear sky
552,Hals,DK,56.9961,10.3081,284.13,95,80,3.69,broken clouds
553,Balkanabat,TM,39.5108,54.3671,291.67,17,13,3.79,few clouds
554,Hasaki,JP,35.7333,140.8333,302.2,69,37,9.88,scattered clouds
555,Alta Floresta,BR,-9.8756,-56.0861,295.97,81,14,0.86,heavy intensity rain
556,Todos Santos,MX,23.45,-110.2167,301.1,85,0,1.97,clear sky
557,Port Lincoln,AU,-34.7333,135.8667,287.73,90,100,11.27,overcast clouds
558,Tura,IN,25.5198,90.2201,295.54,96,100,1.53,overcast clouds
559,Koulikoro,ML,14.0,-7.75,299.18,63,5,2.92,clear sky
560,Grootfontein,NA,-19.5667,18.1167,284.91,43,0,1.54,clear sky
561,Vohma,EE,58.6283,25.5483,279.77,93,100,5.44,light rain
562,Gravenhurst,CA,44.9168,-79.3663,280.91,100,0,0.0,clear sky
563,Hengshui,CN,37.7322,115.7011,283.18,34,95,7.8,overcast clouds
564,Bandarbeyla,SO,9.4942,50.8122,297.97,76,29,8.68,scattered clouds
565,Port Keats,AU,-14.25,129.55,304.61,52,25,4.09,scattered clouds
566,Carndonagh,IE,55.25,-7.2667,288.12,91,100,8.32,light rain
567,Muli,MV,2.9167,73.5667,300.59,78,100,7.69,moderate rain
568,Juiz De Fora,BR,-21.7642,-43.3503,291.2,98,100,1.29,overcast clouds
569,Yamada,JP,39.4667,141.95,297.1,65,96,6.38,overcast clouds
570,Okhotsk,RU,59.3833,143.3,276.21,46,100,2.36,overcast clouds
571,Mitsamiouli,KM,-11.3847,43.2844,296.82,73,7,2.05,clear sky
572,Martinsburg,US,39.4562,-77.9639,283.81,83,100,2.06,overcast clouds
573,Waw,SS,7.7029,27.9953,295.0,97,100,2.37,moderate rain
574,Mlalo,TZ,-4.9333,38.9333,292.57,89,83,2.06,broken clouds
575,Vilyuysk,RU,63.7553,121.6247,271.83,70,98,3.88,overcast clouds
576,Baykit,RU,61.67,96.37,271.91,79,77,1.42,broken clouds
577,Suoyarvi,RU,62.0833,32.35,278.66,96,100,4.21,overcast clouds
578,Llanes,ES,43.4198,-4.7549,292.48,68,1,0.56,clear sky
579,Tual,ID,-5.6667,132.75,301.18,78,58,2.96,broken clouds
580,Pitimbu,BR,-7.4706,-34.8086,296.48,80,47,4.39,scattered clouds
581,Sai Buri,TH,6.7013,101.6168,298.99,79,100,1.51,overcast clouds
582,Oktyabrskiy,RU,54.4815,53.471,280.68,43,10,3.76,clear sky
583,Ust-Kut,RU,56.7938,105.7672,272.68,76,90,1.18,overcast clouds
584,Fairmont,US,39.4851,-80.1426,284.66,87,100,0.45,overcast clouds
585,Egvekinot,RU,66.3167,-179.1667,270.79,75,89,3.61,overcast clouds
586,Itoman,JP,26.1247,127.6694,304.36,70,20,2.57,few clouds
587,Jamame,SO,0.0722,42.7506,295.94,91,11,2.8,few clouds
588,Cuenca,EC,-2.8833,-78.9833,288.22,58,40,1.54,scattered clouds
589,Sochi,RU,43.6,39.7303,289.2,83,100,1.77,light rain
590,Kushmurun,KZ,52.4503,64.6311,274.2,50,4,1.74,clear sky
591,Alegrete,BR,-29.7831,-55.7919,283.16,76,3,4.13,clear sky
592,Ucluelet,CA,48.9329,-125.5528,286.53,92,50,1.32,scattered clouds
593,Port-Cartier,CA,50.0334,-66.8654,282.97,62,10,3.37,clear sky
594,Homer,US,59.6425,-151.5483,284.09,71,100,1.79,overcast clouds
595,Tashtyp,RU,52.7939,89.8983,272.36,59,9,0.55,clear sky
596,Kloulklubed,PW,7.0419,134.2556,303.43,82,100,0.9,overcast clouds
597,Mercedes,AR,-34.6515,-59.4307,286.28,73,8,5.37,clear sky
598,Pontes E Lacerda,BR,-15.2261,-59.3353,297.4,77,11,1.06,few clouds
599,Raudeberg,NO,61.9875,5.1352,285.3,62,100,6.65,overcast clouds
600,Moba,CN,33.2288,105.0179,284.76,70,89,2.78,overcast clouds
601,Constitucion,CL,-35.3333,-72.4167,282.28,90,15,1.91,few clouds
602,Canar,EC,-2.55,-78.9333,284.17,89,96,2.63,overcast clouds
603,Jesus Carranza,MX,17.4333,-95.0333,295.47,88,51,1.73,broken clouds
604,Boende,CD,-0.2167,20.8667,293.6,99,100,1.15,overcast clouds
605,Visnes,NO,59.3556,5.2242,286.05,94,75,5.66,drizzle
606,Pontecorvo,IT,41.4616,13.6667,292.02,76,26,1.83,scattered clouds
607,Mayang Imphal,IN,24.6167,93.8833,295.55,91,90,0.86,overcast clouds
608,Dhandhuka,IN,22.3667,71.9833,301.15,64,65,4.44,broken clouds
609,Skowhegan,US,44.7651,-69.7192,279.46,94,100,0.54,overcast clouds
610,Effingham,US,32.3669,-81.3332,290.12,88,90,2.62,overcast clouds
611,Cuajinicuilapa,MX,16.4667,-98.4167,297.61,86,16,0.53,few clouds
612,Chapais,CA,49.7834,-74.8492,280.03,73,88,3.24,overcast clouds
613,Ziarat,PK,30.3823,67.7282,284.62,27,0,0.54,clear sky
614,Romitan,UZ,39.9343,64.3814,281.12,61,0,2.06,clear sky
615,Libertador General San Martin,AR,-23.8064,-64.7876,292.43,61,0,1.58,clear sky
616,Balakhta,RU,55.38,91.6,273.92,65,13,1.17,few clouds
617,Goderich,CA,43.7501,-81.7165,282.54,93,8,2.57,clear sky
618,Tipuani,BO,-15.5648,-68.0185,293.63,97,75,1.04,broken clouds
619,Asau,RO,46.4333,26.4,281.66,85,57,2.24,broken clouds
620,Jiaojiang,CN,28.6803,121.4428,302.88,68,0,1.57,clear sky
621,Argir,FO,61.9959,-6.7715,284.69,99,100,8.81,light rain
622,Zhigalovo,RU,54.8097,105.1578,273.56,66,75,1.33,broken clouds
623,Belaya Gora,RU,68.5333,146.4167,269.82,78,97,2.32,overcast clouds
624,Quepos,CR,9.4236,-84.1652,299.09,87,74,0.54,broken clouds
625,Samarai,PG,-10.6167,150.6667,300.65,82,93,6.18,overcast clouds
626,Valdemarpils,LV,57.3707,22.5919,282.9,72,100,6.64,overcast clouds
627,Gouyave,GD,12.1646,-61.7296,298.58,89,20,0.0,few clouds
628,Kosh-Agach,RU,50.0,88.6667,269.3,32,0,0.39,clear sky
629,Shimoda,JP,34.6667,138.95,302.1,70,39,5.74,scattered clouds
630,Tete,MZ,-16.1564,33.5867,296.2,53,0,0.0,clear sky
631,Ayr,GB,55.4627,-4.6339,289.44,82,75,10.29,broken clouds
632,Santa Maria Do Para,BR,-1.3503,-47.5756,296.24,94,70,2.7,broken clouds
633,Corner Brook,CA,48.9667,-57.9484,278.24,94,7,2.03,clear sky
634,Huichapan,MX,20.3833,-99.65,288.0,70,100,3.02,overcast clouds
635,Kenai,US,60.5544,-151.2583,285.39,86,100,1.54,light rain
636,Manado,ID,1.487,124.8455,301.58,83,40,3.09,scattered clouds
637,Sharanga,RU,57.1775,46.5396,283.27,87,100,4.92,overcast clouds
638,Evanston,US,42.0411,-87.6901,286.53,78,0,0.0,clear sky
639,El Tigre,VE,8.8875,-64.2454,298.38,79,100,2.4,overcast clouds
640,Zharkovskiy,RU,55.849,32.2697,276.51,97,100,3.56,overcast clouds
641,Mabaruma,GY,8.2,-59.7833,296.98,92,24,0.78,few clouds
642,Nassau,US,40.7507,-73.5829,283.4,84,100,6.69,moderate rain
643,Astana,KZ,51.1801,71.446,269.12,74,0,4.0,clear sky
644,Kangaatsiaq,GL,68.3065,-53.4641,274.47,73,100,1.69,overcast clouds
645,Alice Springs,AU,-23.7,133.8833,304.38,40,40,5.14,scattered clouds
646,Muisne,EC,0.6,-80.0333,297.33,86,100,4.17,overcast clouds
647,Ostrovnoy,RU,68.0531,39.5131,278.18,77,100,3.94,overcast clouds
648,Benghazi,LY,32.1167,20.0667,297.71,60,100,5.56,overcast clouds
649,Muros,ES,42.7762,-9.0603,287.64,95,2,1.23,clear sky
650,Jalu,LY,29.0331,21.5482,294.22,73,0,4.87,clear sky
651,Shelburne,CA,44.0787,-80.2041,280.7,76,91,0.25,overcast clouds
652,Dingle,PH,10.9995,122.6711,302.93,74,100,2.9,overcast clouds
653,Balikpapan,ID,-1.2675,116.8289,301.7,79,20,1.54,few clouds
654,Bria,CF,6.5423,21.9863,293.15,98,100,1.14,overcast clouds
655,Bhinmal,IN,25.0,72.25,298.73,60,5,2.22,clear sky
656,Hwange,ZW,-18.3693,26.5019,294.59,32,0,1.12,clear sky
657,Acapulco,MX,16.8634,-99.8901,301.05,65,20,4.12,few clouds
658,Boa Viagem,BR,-5.1275,-39.7322,296.58,61,65,2.68,broken clouds
659,Zhenhai,CN,24.2582,118.0905,303.53,70,0,1.81,clear sky
660,Denpasar,ID,-8.65,115.2167,298.96,94,75,2.06,broken clouds
661,Zhigansk,RU,66.7697,123.3711,271.31,82,99,5.47,overcast clouds
662,Abu Zabad,SD,12.35,29.25,297.91,68,100,3.97,overcast clouds
663,Kui Buri,TH,12.0828,99.8543,298.23,92,100,2.22,heavy intensity rain
664,Carutapera,BR,-1.195,-46.02,298.62,81,9,3.46,clear sky
665,Dioknisi,GE,41.6293,42.3917,287.23,83,100,2.61,overcast clouds
666,Solnechnyy,RU,50.7214,136.6319,274.09,72,100,5.54,overcast clouds
667,Rovaniemi,FI,66.5,25.7167,279.82,100,100,1.54,mist
668,Pindobacu,BR,-10.7417,-40.3608,293.99,52,4,2.06,clear sky
669,Nouadhibou,MR,20.931,-17.0347,301.14,61,83,4.12,broken clouds
670,Darnah,LY,32.767,22.6367,296.55,72,77,6.98,broken clouds
671,Panacan,PH,9.2463,118.4082,301.5,77,100,1.57,overcast clouds
672,Port Hedland,AU,-20.3167,118.5667,301.18,61,0,6.17,clear sky
673,Lotofaga,WS,-13.9764,-171.8578,305.03,76,8,8.24,clear sky
674,Mangit,UZ,40.5971,70.9607,289.0,37,1,0.69,clear sky
675,Khandyga,RU,62.6667,135.6,269.98,47,14,2.53,few clouds
676,Hambantota,LK,6.1241,81.1185,300.34,89,40,2.57,scattered clouds
677,Bathsheba,BB,13.2167,-59.5167,301.49,83,75,5.14,broken clouds
678,Andenes,NO,69.3143,16.1194,280.33,100,20,4.12,few clouds
679,Agadez,NE,19.75,10.25,300.17,20,0,3.35,clear sky
680,Katherine,AU,-14.4667,132.2667,305.33,48,75,4.63,broken clouds
681,Dalton,US,34.7698,-84.9702,289.88,87,0,3.6,clear sky
682,Tilichiki,RU,60.4667,166.1,276.19,75,100,2.03,overcast clouds
683,Karratha,AU,-20.7377,116.8463,301.69,33,0,4.54,clear sky
684,Kiunga,PG,-6.1219,141.2906,305.55,56,96,1.83,light rain
685,Porto Novo,BJ,6.4965,2.6036,298.05,92,77,2.29,broken clouds
686,Fukue,JP,32.6881,128.8419,300.35,83,75,6.69,broken clouds
687,Gazli,UZ,40.1333,63.45,288.37,21,0,3.38,clear sky
688,Kenora,CA,49.8167,-94.4337,288.69,77,75,2.06,broken clouds
689,Saint Anthony,US,45.0205,-93.218,292.43,57,0,3.6,clear sky
690,Camana,PE,-16.6228,-72.7111,289.03,80,76,2.62,broken clouds
691,Punta Alta,AR,-38.8759,-62.0736,290.44,37,100,10.0,overcast clouds
692,Vetovo,BG,43.7,26.2667,282.61,79,13,4.75,few clouds
693,Santa Marta,CO,11.2408,-74.199,303.09,73,40,3.13,scattered clouds
694,Vermilion,US,40.1667,-87.7506,285.48,75,0,3.01,clear sky
695,Locri,IT,38.2414,16.2623,290.55,79,76,2.39,broken clouds
696,Manchester,GB,53.4809,-2.2374,287.51,89,75,3.09,broken clouds
697,Fort Saint James,CA,54.4333,-124.25,285.78,72,39,0.91,scattered clouds
698,Bantry,IE,51.6833,-9.45,289.14,97,100,9.82,overcast clouds
699,Waitara,NZ,-38.925,174.25,291.76,61,1,5.87,clear sky
700,Aripuana,BR,-9.1667,-60.6333,294.88,99,88,1.65,overcast clouds
701,Saint-Pierre,RE,-21.3393,55.4781,296.8,73,0,2.06,clear sky
702,Atar,MR,20.5169,-13.0499,304.88,34,76,2.69,broken clouds
703,Hecun,CN,36.5333,114.1111,282.52,35,100,4.65,overcast clouds
704,Emirdag,TR,39.0197,31.15,282.08,85,0,1.19,clear sky
705,Navalmoral De La Mata,ES,39.8916,-5.5406,294.79,38,15,0.59,few clouds
